District,Cattle,Sheep,Goats,Camels,Donkeys,Pigs,Indigenous_Chicken,Chicken_Commercial,Bee_Hives,County,Location_1,latitude,longitude,Province,Male,Female,Total,Households,Area_sq_km, Household Density ,Population_Density
BARINGO,68595,72260,168852,13,3047,243,119715,11032,42416,Baringo,"(0.448155493, 35.97415916)",0.448155493,35.97415916,RIFE VALLEY,65136,66242,131378,27309,2420.16,11.28,66268.91392
BARINGO NORTH,38143,30446,128364,28,299,58,73037,3537,31570,Baringo,"(0.745856425, 35.80555092)",0.745856425,35.80555092,RIFE VALLEY,46228,47561,93789,19734,1703.49,11.58,47588.13723
BOMET,210855,53060,82395,5,18363,604,364644,13981,14807,Bomet,"(-0.840969003, 35.31899335)",-0.840969003,35.31899335,RIFE VALLEY,145925,152672,298597,56084,824.56,68.02,152848.9732
BONDO,66419,19004,52674,4,2406,955,194203,11873,827,Siaya,"(-0.09212788, 34.19064437)",-0.09212788,34.19064437,NYANZA,53823,56643,110466,26023,497.69,52.29,56751.14563
BORABU,22827,4416,8776,0,653,417,70047,11250,1178,Nyamira,"(-0.735368659, 35.02803793)",-0.735368659,35.02803793,NYANZA,34151,33461,67612,15615,246.55,63.33,33599.51551
BUNGOMA EAST,59883,12384,9186,0,346,1113,180014,12446,1750,Bungoma,"(0.63973936, 34.73645726)",0.63973936,34.73645726,WESTERN,81861,86202,168063,31961,327.26,97.66,86452.14056
BUNGOMA NORTH,77907,29975,8612,4,688,1810,273318,14230,4371,Bungoma,"(0.783636675, 34.86452529)",0.783636675,34.86452529,WESTERN,108417,114156,222573,41915,420.75,99.62,114413.6756
BUNGOMA SOUTH,83978,13374,28068,8,920,7167,392459,24900,3335,Bungoma,"(0.56139561, 34.52131934)",0.56139561,34.52131934,WESTERN,152157,161988,314145,61280,578.93,105.85,162250.8245
BUNGOMA WEST,63813,12876,22523,6,797,1292,238929,8774,1445,Bungoma,"(0.718594776, 34.54143282)",0.718594776,34.54143282,WESTERN,102129,107157,209286,40157,387.85,103.54,107420.3209
BUNYALA,13912,2632,10577,0,102,2884,57163,1625,152,Busia,"(0.085563847, 34.02046792)",0.085563847,34.02046792,WESTERN,28617,31545,60162,13535,185.33,73.03,31699.41105
BURET,112087,33629,14250,6,4008,349,161569,17601,16109,Bomet,"(-0.547074877, 35.3033778)",-0.547074877,35.3033778,RIFE VALLEY,142728,138653,281381,58138,1166.86,49.82,138775.318
BUSIA,71386,15269,19050,0,590,21315,362069,13515,1337,Busia,"(0.413063265, 34.26474625)",0.413063265,34.26474625,WESTERN,134705,148809,283514,58210,650.11,89.54,149016.2034
BUTERE,64007,14963,12378,0,859,3204,226742,19773,1986,Kakamega,"(0.192421093, 34.54564535)",0.192421093,34.54564535,WESTERN,109084,120551,229635,51518,344.46,149.56,120867.6812
CHALBI,220979,682991,698582,69411,37713,66,5204,411,308,Marsabit,"(3.399917155, 37.36288736)",3.399917155,37.36288736,EASTERN,41318,33878,75196,15586,39248.03,0.4,33879.05274
EAST POKOT,787209,380125,1474617,67036,51763,37,53977,2883,80089,Baringo,"(1.049001072, 36.01860317)",1.049001072,36.01860317,RIFE VALLEY,69889,63300,133189,21291,4516.81,4.71,63315.47309
ELDORET EAST,99774,95778,22796,0,2053,652,206589,46301,11120,Uasin Gishu,"(0.563160828, 35.41893944)",0.563160828,35.41893944,RIFE VALLEY,80374,80348,160722,30873,1182.97,26.1,80415.94255
ELDORET WEST,109909,75332,14856,6,1441,1777,288777,68423,5601,Uasin Gishu,"(0.711285558, 35.19163187)",0.711285558,35.19163187,RIFE VALLEY,123499,123933,247432,47151,1018.49,46.3,124054.257
EMBU,67052,20716,54116,2,579,5021,234489,53217,26972,Embu,"(-0.409100139, 37.50475286)",-0.409100139,37.50475286,EASTERN,106708,110074,216782,56173,630.06,89.16,110243.3616
EMUHAYA,49665,4646,10156,0,309,892,157082,9521,585,Vihiga,"(0.057677852, 34.60778185)",0.057677852,34.60778185,WESTERN,63402,72321,135723,31382,134.34,233.6,72792.95176
FAFI,86337,98889,179226,28143,7694,2,5844,2540,519,Garissa,"(-0.687063677, 40.43908059)",-0.687063677,40.43908059,NORTH EASTERN,49621,44099,93720,15583,15419.55,1.01,44102.21806
GARBATULLA,96899,209672,232354,29127,10315,0,14876,956,432,Isiolo,"(0.627639147, 38.65180184)",0.627639147,38.65180184,EASTERN,18863,15521,34384,7076,9608.11,0.74,15522.96324
GARISSA,266878,312601,1000856,101548,25820,40,31134,12329,3035,Garissa,"(-0.051825797, 39.56855753)",-0.051825797,39.56855753,NORTH EASTERN,40733,32376,73109,11189,4901.58,2.28,32384.31018
GATANGA,28494,6480,17402,0,302,4105,71439,144862,1832,Murang'a,"(-0.876497537, 36.88791928)",-0.876497537,36.88791928,CENTRAL,54783,56375,111158,29664,307.15,96.58,56553.35911
GATUNDU,53364,27569,20162,15,677,2464,142974,366834,3280,Kiambu,"(-0.959326055, 36.85558237)",-0.959326055,36.85558237,CENTRAL,100939,107845,208784,53749,476.47,112.81,108056.8475
GITHUNGURI,57008,9111,6513,0,697,2455,101259,110202,1217,Kiambu,"(-1.066938632, 36.79433274)",-1.066938632,36.79433274,CENTRAL,63591,65052,128643,33301,166.58,199.91,65433.74451
GUCHA,98487,9178,21941,0,2644,737,320792,32086,6314,Kisii,"(-0.846550168, 34.77186075)",-0.846550168,34.77186075,NYANZA,173472,190988,364460,75379,444.13,169.72,191378.5883
GUCHA SOUTH,40625,2719,10449,0,909,310,151492,11029,488,Kisii,"(-0.847942391, 34.65567846)",-0.847942391,34.65567846,NYANZA,70458,75849,146307,29032,192.6,150.74,76214.82555
HAMISI,38990,3685,7894,0,220,358,121759,8883,651,Vihiga,"(0.099070606, 34.82143608)",0.099070606,34.82143608,WESTERN,70469,77790,148259,32096,156.43,205.18,78240.48264
HOMABAY,158259,48665,67488,7,4285,3239,445540,22404,1030,Homa Bay,"(-0.667961724, 34.44445584)",-0.667961724,34.44445584,NYANZA,145981,161346,307327,65649,1067.59,61.49,161482.7388
IGEMBE,108661,25083,100052,1448,5260,4401,199324,28356,16731,Meru,"(0.303772382, 38.05720532)",0.303772382,38.05720532,EASTERN,223950,228586,452536,91130,2805.76,32.48,228665.8179
IJARA,352617,323676,348648,1740,8096,1,25439,3279,422,Garissa,"(-1.427885086, 40.73455516)",-1.427885086,40.73455516,NORTH EASTERN,41782,34964,76746,10701,9778.17,1.09,34968.27299
IMENTI NORTH,84555,72865,46724,49,2371,4320,212865,49956,10158,Meru,"(0.083380846, 37.43552549)",0.083380846,37.43552549,EASTERN,96455,94604,191059,51419,1515.94,33.92,94667.62719
IMENTI SOUTH,54240,15755,40921,4,409,1822,123687,35025,17377,Meru,"(-0.122681965, 37.60133849)",-0.122681965,37.60133849,EASTERN,83596,82722,166318,42793,657.31,65.1,82849.17896
ISIOLO,101525,152164,166549,9957,11874,115,20261,5696,1012,Isiolo,"(1.255057085, 38.46170147)",1.255057085,38.46170147,EASTERN,23997,22539,46536,9745,15477.82,0.63,22540.55041
KAJIADO CENTRAL,95534,218961,270148,472,31564,355,39657,7453,2680,Kajiado,"(-2.133910157, 36.89341002)",-2.133910157,36.89341002,RIFE VALLEY,63652,65373,129025,26352,8056.43,3.27,65380.90077
KAJIADO NORTH,151295,314080,236790,991,2113,5321,150216,257367,3486,Kajiado,"(-1.646437311, 36.44660994)",-1.646437311,36.44660994,RIFE VALLEY,76387,74289,150676,34427,6973.34,4.94,74299.95415
KAKAMEGA CENTRAL,65044,12219,12864,2004,785,2705,277667,23486,1479,Kakamega,"(0.350512813, 34.6856109)",0.350512813,34.6856109,WESTERN,98023,105490,203513,41352,370.93,111.48,105754.2628
KAKAMEGA EAST,43994,7662,3450,0,458,6198,154080,11131,2799,Kakamega,"(0.273804872, 34.85789384)",0.273804872,34.85789384,WESTERN,75699,81476,157175,33661,443.24,75.94,81646.78558
KAKAMEGA NORTH,63536,10644,11670,4,991,567,214560,9276,2634,Kakamega,"(0.473620028, 34.82641205)",0.473620028,34.82641205,WESTERN,97351,102925,200276,39404,423.8,92.98,103154.7098
KAKAMEGA SOUTH,29661,4793,1814,2,193,6123,117054,4551,639,Kakamega,"(0.190561619, 34.7077479)",0.190561619,34.7077479,WESTERN,49260,55409,104669,23144,143.56,161.21,55752.13179
KALOLENI,54501,10424,105773,0,826,532,158360,24463,1441,Kilifi,"(-3.768179495, 39.54477529)",-3.768179495,39.54477529,COAST,102163,114222,216385,33158,871.56,38.04,114339.2186
KEIYO,97350,89881,64177,4,2737,393,166025,16567,27682,Elgeyo Marakwet,"(0.489045271, 35.57039657)",0.489045271,35.57039657,RIFE VALLEY,68649,68705,137354,28369,1290,21.99,68758.21628
KERICHO,130712,16000,46176,2,9070,490,237377,33681,2720,Kericho,"(-0.34219841, 35.21130866)",-0.34219841,35.21130866,RIFE VALLEY,126197,122741,248938,53136,877.8,60.53,122884.7651
KIAMBU EAST KIAMBAA,28767,11057,10459,110,1028,9885,91032,185126,2909,Kiambu,"(-1.158558742, 36.80546766)",-1.158558742,36.80546766,CENTRAL,22768,22306,45074,12468,100.4,124.18,22532.77291
KIAMBU WEST,22484,19745,5765,0,3444,1260,61827,186631,913,Kiambu,"(-1.139177531, 36.62625892)",-1.139177531,36.62625892,CENTRAL,25493,25508,51001,13465,197.39,68.22,25637.15041
KIBWEZI,64791,29657,253037,2,4826,444,180986,12114,32905,Makueni,"(-2.468788914, 38.02538524)",-2.468788914,38.02538524,EASTERN,111813,114038,225851,45843,3894.48,11.77,114066.7106
KIKUYU,32758,17304,9499,0,3381,18820,110976,399043,1379,Kiambu,"(-1.236882983, 36.63360077)",-1.236882983,36.63360077,CENTRAL,424,398,822,251,4.78,52.51,486.7029289
KILIFI,66502,17440,193040,6,1029,1435,276720,115548,1746,Kilifi,"(-3.494969907, 39.60114414)",-3.494969907,39.60114414,COAST,165217,182876,348093,55663,3839.68,14.5,182919.0288
KINANGO,84133,46081,170326,552,723,120,129011,6619,1991,Kwale ,"(-3.96233059, 39.10335046)",-3.96233059,39.10335046,COAST,95472,106099,201571,32394,3973.04,8.15,106123.03
KIPKELION,88104,35276,26783,0,10503,250,172350,10129,10020,Kericho,"(-0.155533799, 35.47881562)",-0.155533799,35.47881562,RIFE VALLEY,57546,55888,113434,23675,676.11,35.02,55973.11337
KIRINYAGA,144112,27642,101596,7,3990,10606,465455,82458,10227,Kirinyaga,"(-0.519266797, 37.32018369)",-0.519266797,37.32018369,CENTRAL,220494,224156,444650,126665,1402.71,90.3,224313.1914
KISII CENTRAL,77353,5427,28433,0,931,670,270754,47631,1386,Kisii,"(-0.589287405, 34.79181187)",-0.589287405,34.79181187,NYANZA,133883,149234,283117,60739,335.51,181.03,149633.0432
KISII SOUTH,25627,788,7930,0,118,140,93509,12192,185,Kisii,"(-0.664610487, 34.6895693)",-0.664610487,34.6895693,NYANZA,25973,28996,54969,11355,78.43,144.78,29327.16155
KISUMU EAST,79369,36552,58628,5,953,2559,285087,81850,954,Kisumu,"(-0.103412297, 34.80473358)",-0.103412297,34.80473358,NYANZA,41091,42394,83485,18041,284.35,63.45,42538.50853
KISUMU WEST,50329,16670,35594,2,813,529,176289,12245,291,Kisumu,"(-0.087587476, 34.53285818)",-0.087587476,34.53285818,NYANZA,65384,72591,137975,31608,352.23,89.74,72776.62871
KITUI,138576,17395,381149,24,48647,574,370942,31868,105781,Kitui,"(-1.392710301, 38.30094003)",-1.392710301,38.30094003,EASTERN,155446,171802,327248,67254,7172.26,9.38,171823.6732
KOIBATEK,96952,67988,100644,6,8228,174,145569,20700,22805,Baringo,"(0.105862677, 35.86953085)",0.105862677,35.86953085,RIFE VALLEY,68064,67590,135654,26523,2273.55,11.67,67619.93732
KURIA EAST,48004,15322,31684,0,1256,228,138434,11684,2446,Migori,"(-1.279753411, 34.65699509)",-1.279753411,34.65699509,NYANZA,40248,41585,81833,13513,188.03,71.87,41799.05095
KURIA WEST,84830,15060,43929,0,839,808,283475,19365,2031,Migori,"(-1.18554383, 34.51983447)",-1.18554383,34.51983447,NYANZA,66766,69496,136262,21501,365.93,58.76,69678.45566
KWALE,32903,4771,58873,1,269,89,117353,36703,517,Kwale ,"(-4.221293887, 39.40753681)",-4.221293887,39.40753681,COAST,64649,67449,132098,24506,947.88,25.85,67517.20378
KWANZA,53090,48151,15006,29,3462,1316,181888,12850,2484,Trans Nzoia,"(1.134996095, 34.85810469)",1.134996095,34.85810469,RIFE VALLEY,108501,108809,217310,42605,1106.59,38.5,108907.0499
KYUSO,53660,27593,175228,1190,25863,113,78526,3371,84514,Kitui,"(-0.440861626, 38.27042885)",-0.440861626,38.27042885,EASTERN,64719,74303,139022,26498,4820.1,5.5,74316.4269
LAGDERA,197846,489282,561883,104992,33568,16,19710,4020,439,Garissa,"(0.288065622, 39.89717479)",0.288065622,39.89717479,NORTH EASTERN,126612,106205,232817,35534,13285.02,2.67,106214.5304
LAIKIPIA EAST,55695,105048,46454,22,2374,1209,125100,22197,3972,Laikipia,"(0.093934415, 36.95183375)",0.093934415,36.95183375,RIFE VALLEY,47846,47497,95343,26516,2846.76,9.31,47513.80718
LAIKIPIA NORTH,39417,86452,120416,2064,3990,17,13513,614,14818,Laikipia,"(0.515458301, 36.99627658)",0.515458301,36.99627658,RIFE VALLEY,16158,15181,31339,6360,2598.1,2.45,15187.21916
LAIKIPIA WEST,94573,149414,115864,717,7111,1481,179512,19036,6843,Laikipia,"(0.39729996, 36.5181069)",0.39729996,36.5181069,RIFE VALLEY,85278,88150,173428,40973,3769.61,10.87,88172.6225
LAISAMIS,61462,187959,270213,46680,11843,45,5049,633,1584,Marsabit,"(2.238105939, 37.48344825)",2.238105939,37.48344825,EASTERN,29088,29971,59059,13248,20133.42,0.66,29972.44476
LAMU,81200,15626,68178,47,2572,55,87951,7636,1219,Lamu,"(-2.018858269, 40.74388079)",-2.018858269,40.74388079,COAST,42813,38488,81301,17391,6258.46,2.78,38494.84082
LARI,34890,23554,2677,0,2291,960,69419,29186,896,Kiambu,"(-0.92811243, 36.67684469)",-0.92811243,36.67684469,CENTRAL,60632,63263,123895,30779,439.16,70.09,63401.06358
LOITOKITOK,165011,185909,192720,134,10997,451,78040,11471,9925,Kajiado,"(-2.635934635, 37.47875865)",-2.635934635,37.47875865,RIFE VALLEY,61472,61277,122749,25565,6389.1,4,61286.62139
LUGARI,78650,35159,12124,2,817,2831,275758,31316,2223,Kakamega,"(0.723211024, 35.02947866)",0.723211024,35.02947866,WESTERN,131855,139845,271700,54680,641.62,85.22,140050.5033
MAARA,32522,10418,36423,6,188,4030,99410,16724,18638,Meru,"(-0.228019729, 37.62522793)",-0.228019729,37.62522793,EASTERN,37364,37767,75131,19509,408.58,47.75,37858.44843
MACHAKOS,121693,46665,148309,9,2665,2595,282312,127965,9489,Machakos,"(-1.50054564, 37.16409824)",-1.50054564,37.16409824,EASTERN,71438,78058,149496,33559,564.55,59.44,78184.53972
MAKUENI,84465,23111,192329,3,14326,463,233209,15639,27180,Makueni,"(-1.881125246, 37.67253055)",-1.881125246,37.67253055,EASTERN,87571,96177,183748,36541,1249.27,29.25,96247.09774
MALINDI,65960,19085,173295,10,2125,478,220186,36729,2818,Kilifi,"(-2.934879654, 39.74330931)",-2.934879654,39.74330931,COAST,126308,133467,259775,38704,7696.93,5.03,133483.4102
MANDERA CENTRAL,467713,745295,1767102,385085,83649,0,85687,10415,1806,Mandera,"(3.226535113, 40.72748791)",3.226535113,40.72748791,NORTH EASTERN,184891,158652,343543,42017,11606.68,3.62,158667.9297
MANDERA EAST,306791,542948,1506203,179713,64985,6,42516,6579,1333,Mandera,"(3.521529392, 41.29294811)",3.521529392,41.29294811,NORTH EASTERN,113535,87460,200995,25892,6069.16,4.27,87478.70687
MANDERA WEST,302474,344581,656442,366021,43030,0,72459,10014,50363,Mandera,"(3.593363344, 40.2334622)",3.593363344,40.2334622,NORTH EASTERN,161628,134022,295650,34273,8120.05,4.22,134041.9048
MANGA,22548,1989,7054,0,218,84,65849,12267,1105,Nyamira,"(-0.688310175, 34.90211779)",-0.688310175,34.90211779,NYANZA,41678,46181,87859,19295,111.32,173.33,46555.39813
MARAKWET,99969,202260,108093,17,10636,218,143608,12207,33422,Elgeyo Marakwet,"(1.08405524, 35.50699822)",1.08405524,35.50699822,RIFE VALLEY,89136,90322,179458,37581,1583.88,23.73,90378.27699
MARSABIT,25906,13306,28162,915,2800,14,8286,1560,440,Marsabit,"(2.350360288, 37.94495682)",2.350360288,37.94495682,EASTERN,15780,15815,31595,6558,2045.73,3.21,15822.71363
MASABA,63945,6651,19094,2,1845,425,189884,20822,1130,Kisii,"(-0.793929262, 34.88253143)",-0.793929262,34.88253143,NYANZA,67399,75588,142987,31121,193.37,160.94,75936.54941
MBEERE,83648,26834,166679,11,7234,1347,202410,14675,74004,Embu,"(-0.666137176, 37.66541038)",-0.666137176,37.66541038,EASTERN,106932,109577,216509,50579,2090.86,24.19,109628.1426
MBOONI,51188,13010,119010,5,6737,245,161437,9590,11320,Makueni,"(-1.649117358, 37.60666503)",-1.649117358,37.60666503,EASTERN,83997,92292,176289,36765,892.62,41.19,92386.10163
MERU CENTRAL,57108,24524,31093,2,862,2010,131170,22164,14556,Meru,"(0.001443681, 37.58330732)",0.001443681,37.58330732,EASTERN,70315,71453,141768,37209,790.15,47.09,71541.98943
MERU SOUTH,36893,19283,52354,2,486,4575,123515,15940,33942,Meru,"(-0.330686401, 37.67297626)",-0.330686401,37.67297626,EASTERN,40911,43726,84637,21157,557.98,37.92,43799.31983
MIGORI,145339,33958,79625,1,5848,1021,428046,28729,672,Migori,"(-0.994047994, 34.30280979)",-0.994047994,34.30280979,NYANZA,121181,132228,253409,51951,1092.16,47.57,132338.9554
MOLO,182243,149906,37724,2,20208,1789,439209,39865,64052,Nakuru,"(-0.409755795, 35.75756717)",-0.409755795,35.75756717,RIFE VALLEY,219216,216006,435222,94283,2276.9,41.41,216102.2783
MOYALE,116256,75748,146523,86314,11505,0,27769,1778,359,Marsabit,"(3.117620629, 38.80269655)",3.117620629,38.80269655,EASTERN,32832,28475,61307,9752,9310.32,1.05,28478.52641
MSAMBWENI,138107,32281,120556,60,1540,320,187463,54898,1974,Kwale ,"(-4.397198722, 39.16173404)",-4.397198722,39.16173404,COAST,96815,101771,198586,36059,3112.07,11.59,101802.1095
MT. ELGON,45941,20359,14668,2,6347,725,107726,3044,7537,Bungoma,"(0.928746904, 34.59729929)",0.928746904,34.59729929,WESTERN,81232,81068,162300,30165,947.8,31.83,81153.70585
MUMIAS,73060,15498,8443,4,1202,3579,338298,20479,1415,Kakamega,"(0.35427418, 34.48762031)",0.35427418,34.48762031,WESTERN,115328,125744,241072,50730,428.68,118.34,126013.0305
MURANGA NORTH,102573,21865,86808,0,930,3843,246041,89409,6019,Murang'a,"(-0.675384535, 36.98118146)",-0.675384535,36.98118146,CENTRAL,151033,163375,314408,87030,913.79,95.24,163540.282
MURANGA SOUTH,112181,25974,82937,4,2066,14336,365272,280819,25643,Murang'a,"(-0.845673319, 37.05522802)",-0.845673319,37.05522802,CENTRAL,156115,165195,321310,84114,762.77,110.27,165399.6685
MUTOMO,63773,10254,224621,396,26750,294,117422,3750,88495,Kitui,"(-2.179047638, 38.53912323)",-2.179047638,38.53912323,EASTERN,85554,93098,178652,32427,12833.65,2.53,93104.66638
MWALA,52251,10735,133335,7,6587,206,154782,9466,9345,Machakos,"(-1.399783931, 37.52391049)",-1.399783931,37.52391049,EASTERN,76334,81342,157676,33760,1014.01,33.29,81417.27934
MWINGI,84332,10262,276392,513,35361,171,144292,5249,110271,Kitui,"(-0.907180566, 38.36852014)",-0.907180566,38.36852014,EASTERN,107186,120692,227878,45445,5217.1,8.71,120712.5451
NAIVASHA,139501,240746,115363,67,19375,6390,222316,84814,6487,Nakuru,"(-0.727134387, 36.33344468)",-0.727134387,36.33344468,RIFE VALLEY,73424,73433,146857,36293,2201.08,16.49,73466.35817
NAKURU,83787,70632,62188,2,3938,3803,244309,151941,3610,Nakuru,"(-0.134672183, 36.03461164)",-0.134672183,36.03461164,RIFE VALLEY,74315,72848,147163,33709,1150.95,29.29,72912.5684
NAKURU NORTH,34463,43751,11762,0,2273,1912,196487,151864,1446,Nakuru,"(-0.135028953, 36.16401596)",-0.135028953,36.16401596,RIFE VALLEY,68149,70909,139058,31938,526,60.72,71038.56084
NANDI CENTRAL,85198,34680,5220,13,675,476,171878,15077,6652,Nandi,"(0.237462739, 35.08490348)",0.237462739,35.08490348,RIFE VALLEY,70344,72075,142419,28367,506.18,56.04,72213.97033
NANDI EAST,35420,10971,5294,6,963,181,72246,5060,2130,Nandi,"(0.105368029, 35.23779105)",0.105368029,35.23779105,RIFE VALLEY,57741,54897,112638,25598,528.57,48.43,55006.24002
NANDI NORTH,86242,43588,7166,6,1278,244,147802,11820,4586,Nandi,"(0.438611778, 35.06077368)",0.438611778,35.06077368,RIFE VALLEY,80199,80406,160605,31106,730.87,42.56,80515.73087
NANDI SOUTH,68155,22280,14340,11,2040,268,146613,7013,5652,Nandi,"(0.048811478, 34.96800793)",0.048811478,34.96800793,RIFE VALLEY,78209,79758,157967,30768,525.45,58.56,79906.84194
NAROK NORTH,255881,529492,219394,116,38796,3959,113328,17324,19402,Narok,"(-0.959555087, 35.99464674)",-0.959555087,35.99464674,RIFE VALLEY,109966,103800,213766,42982,4639.41,9.26,103823.7026
NAROK SOUTH,701899,935757,510328,449,38934,2275,172644,8731,22730,Narok,"(-1.402738483, 35.5807782)",-1.402738483,35.5807782,RIFE VALLEY,158947,158897,317844,62412,10412.05,5.99,158912.2657
NYAMIRA,76127,6309,27671,0,1376,379,215897,29564,1509,Nyamira,"(-0.549513229, 34.96346861)",-0.549513229,34.96346861,NYANZA,125744,137457,263201,56063,337.9,165.92,137829.1338
NYANDARUA NORTH,121973,148810,17943,4,7366,1528,337630,36959,6483,Nyandarua,"(-0.144560572, 36.42343108)",-0.144560572,36.42343108,CENTRAL,106111,109785,215896,52503,1394.69,37.64,109861.0821
NYANDARUA SOUTH,110110,116856,5697,1,3863,597,239240,16385,5804,Nyandarua,"(-0.533045224, 36.55651343)",-0.533045224,36.55651343,CENTRAL,131872,137982,269854,61936,1472.58,42.06,138071.5517
NYANDO,143085,97179,100744,6,14174,1172,391119,33369,11143,Kisumu,"(-0.198538171, 35.02991504)",-0.198538171,35.02991504,NYANZA,115314,124415,239729,52448,847.6,61.88,124551.0477
NYERI NORTH,128193,136947,46557,78,2219,5773,283681,67995,9256,Nyeri,"(-0.266587082, 36.9811441)",-0.266587082,36.9811441,CENTRAL,141423,143971,285394,81307,2253.47,36.08,144033.7579
NYERI SOUTH,94053,31862,56369,10,1064,7811,229956,84385,6743,Nyeri,"(-0.500808092, 36.89927916)",-0.500808092,36.89927916,CENTRAL,114557,123990,238547,66028,874.13,75.54,124121.0526
NZAUI,70595,33734,169009,12,6195,351,187146,8684,13900,Makueni,"(-1.928374635, 37.41612392)",-1.928374635,37.41612392,EASTERN,94961,99381,194342,40654,1378.37,29.49,99449.89369
POKOT CENTRAL,179212,146300,213141,1050,6559,155,138190,4950,28432,West Pokot,"(1.491213025, 35.49402215)",1.491213025,35.49402215,RIFE VALLEY,87199,88417,175616,32548,2898.74,11.23,88447.08169
POKOT NORTH,377688,199977,377903,29273,21671,93,121380,8705,69469,West Pokot,"(2.039330692, 35.10600361)",2.039330692,35.10600361,RIFE VALLEY,77959,78052,156011,25966,3953.21,6.57,78071.72043
RACHUONYO,132046,52918,105275,6,5879,965,433562,23805,1482,Homa Bay,"(-0.43493606, 34.70386182)",-0.43493606,34.70386182,NYANZA,154325,167978,322303,67930,860.23,78.97,168157.3997
RARIEDA,60060,19807,44300,4,3573,559,183384,6563,722,Siaya,"(-0.218940047, 34.33792037)",-0.218940047,34.33792037,NYANZA,63020,68522,131542,30178,400.42,75.37,68679.38475
RONGO,102999,29324,43995,4,1896,1528,435781,28404,604,Migori,"(-0.877791282, 34.51455638)",-0.877791282,34.51455638,NYANZA,65240,68914,134154,26880,429.94,62.52,69065.7421
SAMBURU CENTRAL,78123,175415,148368,3544,4281,60,25076,3679,5014,Samburu,"(1.09166901, 36.71442163)",1.09166901,36.71442163,RIFE VALLEY,42524,44378,86902,18300,3924.43,4.66,44388.83571
SAMBURU EAST,37350,69422,131840,7212,10363,95,7754,906,3413,Samburu,"(1.081019259, 37.47389892)",1.081019259,37.47389892,RIFE VALLEY,22641,23931,46572,9976,9783.15,1.02,23933.31429
SAMBURU NORTH,69193,142861,270542,22068,12178,32,4919,377,12630,Samburu,"(1.789437949, 36.83086912)",1.789437949,36.83086912,RIFE VALLEY,27646,24163,51809,10051,7017.61,1.43,24166.93952
SAMIA,17079,4548,16690,0,132,7386,93144,5649,502,Busia,"(0.249684994, 34.08114406)",0.249684994,34.08114406,WESTERN,44267,49233,93500,19395,265.12,73.16,49399.96967
SIAYA,167154,55755,79573,8,1552,9905,616660,34332,11734,Siaya,"(0.11399015, 34.3043068)",0.11399015,34.3043068,NYANZA,238253,271416,509669,120471,1504.63,80.07,271574.3466
SOTIK,102484,30100,13387,4,3592,328,168386,7840,3666,Bomet,"(-0.759704345, 35.1490337)",-0.759704345,35.1490337,RIFE VALLEY,88445,91157,179602,33625,535.32,62.81,91322.21893
SUBA,83238,17364,86412,10,8625,962,215674,9592,893,Homa Bay,"(-0.582416527, 34.20665004)",-0.582416527,34.20665004,NYANZA,96328,99785,196113,40405,1057.37,38.21,99876.10151
TAITA,111158,26274,103392,1078,2772,688,146614,35170,13438,Taita Taveta,"(-3.416968032, 38.56492447)",-3.416968032,38.56492447,COAST,87996,84572,172568,41936,13547.51,3.1,84578.49536
TANA DELTA,211838,131154,118676,496,4902,12,65897,4872,4469,Tana River,"(-2.317407934, 39.51654731)",-2.317407934,39.51654731,COAST,47216,46544,93760,18146,15613.04,1.16,46547.02414
TANA RIVER,58056,141698,365544,48386,12688,23,43208,6734,11058,Tana River,"(-0.942366175, 39.34922935)",-0.942366175,39.34922935,COAST,54531,55719,110250,21389,22270.52,0.96,55721.44857
TAVETA,42610,19053,63268,208,796,366,65515,3065,3512,Taita Taveta,"(-3.41452877, 37.97519351)",-3.41452877,37.97519351,COAST,24971,22829,47800,10816,3488.47,3.1,22836.15815
TESO NORTH,26693,3308,20267,0,131,4457,158383,12677,888,Busia,"(0.685653144, 34.34692124)",0.685653144,34.34692124,WESTERN,35403,37415,72818,13491,182.44,73.95,37609.05284
TESO SOUTH,34725,5984,19189,0,44,12746,198936,9333,439,Busia,"(0.545069632, 34.22063324)",0.545069632,34.22063324,WESTERN,53929,57833,111762,21346,277.54,76.91,58027.31073
THARAKA,63444,31961,142813,12,5444,980,135417,5692,77383,Tharaka Nithi,"(-0.136787024, 38.01828449)",-0.136787024,38.01828449,EASTERN,58691,62872,121563,25227,1462.16,17.25,62912.13993
THIKA EAST,21164,8000,26083,0,356,990,53662,49439,12224,Kiambu,"(-1.029757173, 37.23100647)",-1.029757173,37.23100647,CENTRAL,36828,36775,73603,19226,398.18,48.28,36867.49083
THIKA WEST,17323,14716,17838,0,725,2884,80174,191810,562,Kiambu,"(-1.099288796, 37.04502993)",-1.099288796,37.04502993,CENTRAL,12299,12188,24487,7283,207.31,35.13,12247.32661
TIGANIA,97740,29995,94750,2529,5325,8053,227334,18812,28225,Meru,"(0.256927453, 37.77333779)",0.256927453,37.77333779,EASTERN,139371,150216,289587,61666,1122.88,54.92,150340.1192
TINDERET,34023,9942,14649,0,4205,58,62074,2876,3718,Nandi,"(-0.013491939, 35.3167413)",-0.013491939,35.3167413,RIFE VALLEY,39109,37946,77055,14489,379.67,38.16,38049.00788
TRANS MARA,459106,184780,150496,43,20466,1097,275347,11468,22335,Narok,"(-1.159714592, 34.89742997)",-1.159714592,34.89742997,RIFE VALLEY,130323,130493,260816,47324,2845.99,16.63,130538.7918
TRANS NZOIA EAST,57887,49074,6136,12,2474,426,183284,71188,3802,Trans Nzoia,"(0.942674226, 34.89426897)",0.942674226,34.89426897,RIFE VALLEY,96596,98577,195173,39119,629.78,62.12,98730.38055
TRANS NZOIA WEST,68170,42618,10811,6,2778,2366,265443,77417,3997,Trans Nzoia,"(1.022635873, 35.18029104)",1.022635873,35.18029104,RIFE VALLEY,117754,121100,238854,47146,622.05,75.79,121289.2999
TURKANA CENTRAL,196492,560671,1273445,150700,90067,220,27405,3773,1985,Turkana,"(3.05371677, 35.44299468)",3.05371677,35.44299468,RIFE VALLEY,101846,102536,204382,31217,13990.49,2.23,102543.2797
TURKANA NORTH,652288,1274062,1874668,269185,194434,132,23876,3441,307,Turkana,"(4.31378822, 35.09717514)",4.31378822,35.09717514,RIFE VALLEY,159941,142978,302919,40422,35091.54,1.15,142982.5578
TURKANA SOUTH,685832,1682418,2846748,412577,273686,218,114068,8230,30289,Turkana,"(2.078370044, 35.99979492)",2.078370044,35.99979492,RIFE VALLEY,121022,105357,226379,28437,18670.82,1.52,105363.4819
VIHIGA,59588,3747,14323,1,298,486,199210,15368,598,Vihiga,"(0.079761357, 34.72682968)",0.079761357,34.72682968,WESTERN,45400,51135,96535,20645,103.69,199.1,51572.84357
WAJIR EAST,159846,460690,720936,167764,32192,2,35265,10145,390,Wajir,"(2.195672158, 40.36685178)",2.195672158,40.36685178,NORTH EASTERN,78399,63219,141618,18414,13307.77,1.38,63224.89122
WAJIR NORTH,189707,192787,300079,161958,23681,1,41780,3549,327,Wajir,"(2.931162031, 39.5873795)",2.931162031,39.5873795,NORTH EASTERN,73628,61877,135505,17592,8554.59,2.06,61885.60684
WAJIR SOUTH,331458,389482,464512,97111,29113,0,27298,3650,414,Wajir,"(0.974263337, 40.34314459)",0.974263337,40.34314459,NORTH EASTERN,66842,54728,121570,17030,21540.15,0.79,54731.10314
WAJIR WEST,113541,363924,380699,106818,30517,0,35767,4793,141,Wajir,"(1.920164855, 39.5240015)",1.920164855,39.5240015,NORTH EASTERN,93597,72796,166393,20716,13067.21,1.59,72803.16274
WARENG,85421,55837,6514,0,2105,6374,168639,44609,6312,Uasin Gishu,"(0.299690606, 35.33850049)",0.299690606,35.33850049,RIFE VALLEY,70614,69852,140466,27773,832.61,33.36,69936.81042
WEST POKOT,129475,114050,173693,294,8243,149,143426,8397,32080,West Pokot,"(1.492414256, 35.16354392)",1.492414256,35.16354392,RIFE VALLEY,68488,69879,138367,26209,2189.2,11.97,69910.28449
YATTA,94779,35321,263080,1,10828,405,237075,15843,23288,Machakos,"(-1.060809489, 37.60220541)",-1.060809489,37.60220541,EASTERN,106094,113963,220057,46905,2214.83,21.18,114010.9016
